,City,Country,Cloudiness (%),Current Temp (F),Date,Humidity,Lat,Long.,Max Temp (F),Wind Speed (mph)
0,Ponta do Sol,PT,96,56.53,1/19/2021 23:16,81,32.67,-17.10,61,12.91
1,Atuona,PF,17,78.24,1/19/2021 23:16,73,-9.80,-139.03,78.24,11.18
2,Barrow,US,90,-2.2,1/19/2021 23:16,78,71.29,-156.79,-2.2,21.85
3,Saint-Philippe,RE,0,76.14,1/19/2021 23:16,74,-21.36,55.77,80.6,2.3
4,Daye,CN,43,45.46,1/19/2021 23:16,59,30.08,114.95,45.46,6.4
5,Rome,US,75,29.93,1/19/2021 23:16,74,43.21,-75.46,30.99,8.05
6,Cape Town,ZA,20,66.22,1/19/2021 23:12,68,-33.93,18.42,68,18.41
7,Provincia di Perugia,IT,75,41.04,1/19/2021 23:16,100,43.05,12.55,44.01,3.44
8,Ordzhonīkīdze,KZ,100,8.06,1/19/2021 23:16,96,52.44,61.74,8.06,1.19
9,Rio Grande,BR,0,72,1/19/2021 23:16,74,-32.04,-52.10,72,11.63
10,Nikolskoye,RU,75,23,1/19/2021 23:17,86,59.70,30.79,23,4.47
11,Malatya Province,TR,0,14,1/19/2021 23:14,79,38.50,38.00,14,2.3
12,Whitianga,NZ,30,66,1/19/2021 23:17,72,-36.83,175.70,66,11.01
13,Mahébourg,MU,20,77,1/19/2021 23:16,94,-20.41,57.70,77,3.44
14,Vestmannaeyjar,IS,2,35.78,1/19/2021 23:17,80,63.44,-20.27,35.78,24.16
15,Hauterive,FR,0,41,1/19/2021 23:17,42,46.09,3.45,41,21.85
16,Ushuaia,AR,20,59,1/19/2021 23:17,58,-54.80,-68.30,59,9.22
17,Erdenet,MN,0,8.65,1/19/2021 23:17,79,49.03,104.08,8.65,1.88
18,Qaanaaq,GL,99,2.44,1/19/2021 23:17,72,77.48,-69.36,2.44,7.99
19,Cidreira,BR,10,72.52,1/19/2021 23:17,70,-30.18,-50.21,72.52,13.13
20,Tynda,RU,100,-35.25,1/19/2021 23:17,81,55.17,124.72,-35.25,2.48
21,Kesztölc,HU,100,34,1/19/2021 23:17,88,47.71,18.80,35.01,4.21
22,Hobart,AU,20,60.78,1/19/2021 23:12,47,-42.88,147.33,62.01,6.91
23,Saint Paul Harbor,US,90,35.6,1/19/2021 23:17,64,57.79,-152.41,35.6,11.27
24,Takhatpur,IN,0,62.74,1/19/2021 23:17,57,22.15,81.87,62.74,4.47
25,Saint George,US,75,55.4,1/19/2021 23:17,24,37.10,-113.58,55.99,9.22
26,Mataura,NZ,100,46.99,1/19/2021 23:17,92,-46.19,168.86,46.99,10
27,Kaitangata,NZ,100,53.01,1/19/2021 23:17,63,-46.28,169.85,53.01,14
28,Leningradskiy,RU,100,-17.09,1/19/2021 23:17,86,69.38,178.42,-17.09,13.13
29,Bredasdorp,ZA,44,62.6,1/19/2021 23:17,72,-34.53,20.04,62.6,4.61
30,Seymchan,RU,71,-43.17,1/19/2021 23:17,79,62.88,152.43,-43.17,1.92
31,Rāwah,IQ,88,52.21,1/19/2021 23:18,77,34.48,41.91,52.21,5.55
32,Hermanus,ZA,47,61,1/19/2021 23:13,86,-34.42,19.23,61,11.18
33,Manhattan,US,1,38.32,1/19/2021 23:07,56,40.78,-73.97,41,5.75
34,Ostrovnoy,RU,100,16.29,1/19/2021 23:18,95,68.05,39.51,16.29,25.05
35,Bathsheba,BB,20,78.8,1/19/2021 23:18,65,13.22,-59.52,78.8,23.02
36,Porto Torres,IT,40,48.2,1/19/2021 23:18,87,40.84,8.40,48.2,3.44
37,Tasiilaq,GL,75,12.2,1/19/2021 23:18,67,65.61,-37.64,12.2,3.44
38,Mar del Plata,AR,0,68.92,1/19/2021 23:18,78,-38.00,-57.56,70,10.36
39,Ilulissat,GL,75,30.2,1/19/2021 23:18,55,69.22,-51.10,30.2,6.91
40,Rikitea,PF,20,78.55,1/19/2021 23:18,77,-23.12,-134.97,78.55,15.32
41,East London,ZA,71,70.56,1/19/2021 23:18,73,-33.02,27.91,70.56,18.95
42,Saskylakh,RU,100,-20.56,1/19/2021 23:18,86,71.92,114.08,-20.56,7.87
43,Menzel Salem,TN,0,35.6,1/19/2021 23:18,69,35.86,8.48,35.6,2.3
44,Murree,PK,0,45,1/19/2021 23:18,72,33.91,73.39,45,7.34
45,Miramar,US,1,67.93,1/19/2021 23:18,56,25.99,-80.23,69.01,8.05
46,Busselton,AU,9,66.99,1/19/2021 23:18,97,-33.65,115.33,66.99,8.03
47,Gubkinskiy,RU,99,-17.37,1/19/2021 23:18,88,64.43,76.50,-17.37,10.4
48,Soyo,AO,83,79.99,1/19/2021 23:18,79,-6.13,12.37,79.99,6.73
49,Waipawa,NZ,2,61,1/19/2021 23:18,51,-41.41,175.52,62.01,28.77
50,Piaçabuçu,BR,99,78.04,1/19/2021 23:18,80,-10.41,-36.43,78.04,10.71
51,Hasaki,JP,20,27.7,1/19/2021 23:18,59,35.73,140.83,30.2,3.44
52,Ribeira Grande,PT,100,60.73,1/19/2021 23:18,73,38.52,-28.70,60.73,14.63
53,Pão de Açúcar,BR,100,78.4,1/19/2021 23:18,65,-9.75,-37.44,78.4,13.47
54,Castel Goffredo,IT,75,32.67,1/19/2021 23:18,100,45.30,10.48,34,3.44
55,Padang,ID,40,71.6,1/19/2021 23:19,94,-0.95,100.35,71.6,2.3
56,Miandrivazo,MG,100,79.59,1/19/2021 23:19,83,-19.52,45.47,79.59,0.45
57,Dingle,PH,98,74.19,1/19/2021 23:19,91,11.00,122.67,74.19,4.18
58,Novy Urengoy,RU,86,-19.19,1/19/2021 23:19,88,66.08,76.63,-19.19,7.27
59,Isangel,VU,75,84.2,1/19/2021 23:19,84,-19.55,169.27,84.2,1.81
60,Matara,LK,98,75.74,1/19/2021 23:19,88,5.95,80.54,75.74,2.37
61,Hithadhoo,MV,14,80.82,1/19/2021 23:19,71,-0.60,73.08,80.82,10.85
62,Avera,US,1,56.08,1/19/2021 23:19,33,33.19,-82.53,57.2,6.08
63,Torbay,CA,90,31.84,1/19/2021 23:14,86,47.67,-52.73,33.01,17.27
64,Puerto Ayora,EC,20,78.31,1/19/2021 23:18,78,-0.74,-90.35,80.6,14.97
65,Vaini,TO,40,87.8,1/19/2021 23:19,70,-21.20,-175.20,87.8,9.22
66,Severo-Kuril'sk,RU,94,13.21,1/19/2021 23:19,87,50.68,156.13,13.21,19.1
67,Nanortalik,GL,29,26.1,1/19/2021 23:18,85,60.14,-45.24,26.1,10.54
68,Saldanha,ZA,0,64.4,1/19/2021 23:19,72,-33.01,17.94,64.4,14.97
69,São João da Barra,BR,0,76.35,1/19/2021 23:19,82,-21.64,-41.05,76.35,15.41
70,Cascais,PT,100,57.49,1/19/2021 23:19,87,38.70,-9.42,57.99,27
71,Dikson,RU,94,-20.42,1/19/2021 23:19,89,73.51,80.55,-20.42,9.28
72,Bull Savanna,JM,80,75.18,1/19/2021 23:19,83,17.89,-77.59,75.18,6.91
73,Saint-Augustin,CA,6,16.14,1/19/2021 23:19,90,51.23,-58.65,16.14,16.42
74,Pochutla,MX,75,86.86,1/19/2021 23:19,45,15.74,-96.47,87.8,8.05
75,Yenotayevka,RU,55,16,1/19/2021 23:19,81,47.25,47.03,16,1.99
76,Manturovo,RU,88,-1.25,1/19/2021 23:19,93,58.34,44.76,-1.25,2.93
77,Constitución,CL,13,63.63,1/19/2021 23:19,80,-35.33,-72.42,63.63,5.91
78,Hamilton,US,1,37.31,1/19/2021 23:18,48,39.18,-84.53,39.2,9.22
79,Bluff,NZ,95,46.99,1/19/2021 23:18,92,-46.60,168.33,46.99,10
80,Kropotkin,RU,98,15.93,1/19/2021 23:20,97,45.44,40.58,15.93,3.94
81,Grand Gaube,MU,42,79,1/19/2021 23:20,88,-20.01,57.66,79,7.56
82,Adrar,MR,29,58.66,1/19/2021 23:19,28,20.50,-10.07,58.66,11.34
83,New Norfolk,AU,0,58.77,1/19/2021 23:18,49,-42.78,147.06,63,1.99
84,Tuatapere,NZ,100,46.99,1/19/2021 23:20,93,-46.13,167.68,46.99,8.01
85,Avarua,CK,20,84.2,1/19/2021 23:20,74,-21.21,-159.78,84.2,6.91
86,Nizwá,OM,0,57.85,1/19/2021 23:20,55,22.93,57.53,57.85,1.43
87,Nānākuli,US,1,81.12,1/19/2021 23:20,48,21.39,-158.15,84.2,11.5
88,Salalah,OM,0,68,1/19/2021 23:20,40,17.02,54.09,68,4.61
89,Nur-Sultan,KZ,0,8.6,1/19/2021 23:20,78,51.18,71.45,8.6,15.66
90,Jamestown,US,90,26.6,1/19/2021 23:18,86,42.10,-79.24,28,6.91
91,Warrnambool,AU,0,62.01,1/19/2021 23:20,71,-38.38,142.48,62.01,1.01
92,Álamos,MX,99,70,1/19/2021 23:20,62,27.02,-108.93,70,8.01
93,Hilo,US,75,75.74,1/19/2021 23:17,61,19.73,-155.09,80.6,8.05
94,George Town,MY,40,75.54,1/19/2021 23:19,83,5.41,100.34,77,3.44
95,Kalmunai,LK,54,74.77,1/19/2021 23:20,93,7.42,81.82,74.77,9.37
96,Geraldton,AU,90,77,1/19/2021 23:20,65,-28.77,114.60,77,10.36
97,Alice Springs,AU,0,79.47,1/19/2021 23:18,18,-23.70,133.88,82.4,12.66
98,Atar,MR,55,60.19,1/19/2021 23:20,26,20.52,-13.05,60.19,11.14
99,Punta Arenas,CL,0,62.29,1/19/2021 23:18,48,-53.15,-70.92,62.6,6.91
100,Bengkulu,ID,25,75,1/19/2021 23:20,83,-3.80,102.27,75,5.14
101,Port Alfred,ZA,18,66.99,1/19/2021 23:20,91,-33.59,26.89,66.99,4
102,São Filipe,CV,100,72.7,1/19/2021 23:20,66,14.90,-24.50,72.7,10.78
103,Kapaa,US,90,68.2,1/19/2021 23:18,100,22.08,-159.32,69.8,23.02
104,Biswān,IN,0,54.3,1/19/2021 23:21,76,27.50,81.00,54.3,7.76
105,Beloha,MG,87,75.61,1/19/2021 23:21,80,-25.17,45.05,75.61,12.35
106,Aykhal,RU,100,-52.26,1/19/2021 23:21,74,66.00,111.50,-52.26,3.29
107,Kununurra,AU,40,82.4,1/19/2021 23:21,83,-15.77,128.73,82.4,2.3
108,Port Hedland,AU,0,87.8,1/19/2021 23:21,66,-20.32,118.57,87.8,2.3
109,Tilichiki,RU,92,-24.25,1/19/2021 23:20,85,60.47,166.10,-24.25,14.52
110,Clyde River,CA,75,1.4,1/19/2021 23:20,92,70.47,-68.59,1.4,10.36
111,Karpogory,RU,100,12.58,1/19/2021 23:21,96,64.00,44.45,12.58,7.2
112,Upernavik,GL,100,21.24,1/19/2021 23:19,76,72.79,-56.15,21.24,5.79
113,Hurghada,EG,0,55.4,1/19/2021 23:21,35,27.26,33.81,55.4,12.66
114,Bitung,ID,20,75.2,1/19/2021 23:21,94,1.45,125.18,75.2,3.38
115,Bethel,US,1,30.97,1/19/2021 23:21,74,41.37,-73.41,33.01,6.58
116,Albany,US,93,34.02,1/19/2021 23:20,71,42.60,-73.97,36,4.34
117,Apple Valley,US,99,51.04,1/19/2021 23:21,29,34.50,-117.19,52,21.99
118,Ulladulla,AU,40,64.58,1/19/2021 23:21,52,-35.35,150.47,68,9.22
119,Inta,RU,99,-0.9,1/19/2021 23:21,90,66.03,60.17,-0.9,5.37
120,Ngerengere,TZ,74,71.64,1/19/2021 23:21,94,-6.75,38.12,71.64,3.09
121,Chokurdakh,RU,48,-37.93,1/19/2021 23:21,83,70.63,147.92,-37.93,2.89
122,Buala,SB,89,85.01,1/19/2021 23:19,68,-8.15,159.59,85.01,4.81
123,Emerald,AU,40,84.11,1/19/2021 23:21,61,-23.53,148.17,84.2,10.36
124,Švenčionys,LT,0,3.76,1/19/2021 23:21,94,55.15,26.17,3.76,7.99
125,Blagoyevo,RU,100,8.38,1/19/2021 23:21,95,63.37,47.92,8.38,6.8
126,Diego de Almagro,CL,0,73.81,1/19/2021 23:21,27,-26.37,-70.05,73.81,10.07
127,Shimoda,JP,75,36.88,1/19/2021 23:22,56,34.67,138.95,41,14.97
128,Ginda,IN,0,39.69,1/19/2021 23:22,44,30.69,78.49,39.69,6.91
129,Port Elizabeth,ZA,0,68,1/19/2021 23:22,77,-33.92,25.57,68,16.11
130,La Orilla,MX,60,81.41,1/19/2021 23:22,63,17.98,-102.23,81.41,6.6
131,Abéché,TD,0,65.62,1/19/2021 23:22,26,13.83,20.83,65.62,14.61
132,Tiarei,PF,40,86,1/19/2021 23:22,62,-17.53,-149.33,86,6.91
133,Lufilufi,WS,40,89.29,1/19/2021 23:22,74,-13.87,-171.60,89.6,17.27
134,Sitka,US,75,39.2,1/19/2021 23:20,81,57.05,-135.33,39.2,12.66
135,Ahipara,NZ,61,65.62,1/19/2021 23:22,57,-35.17,173.17,65.62,14.29
136,Pascagoula,US,1,61.92,1/19/2021 23:22,63,30.37,-88.56,62.6,5.75
137,Ambilobe,MG,100,74.79,1/19/2021 23:22,94,-13.20,49.05,74.79,7.56
138,Sapa,PH,89,81.23,1/19/2021 23:22,81,5.15,120.32,81.23,13.85
139,Pevek,RU,100,-28.32,1/19/2021 23:22,86,69.70,170.31,-28.32,7.43
140,Te Anau,NZ,100,45.46,1/19/2021 23:22,87,-45.42,167.72,45.46,8.79
141,Touros,BR,20,80.6,1/19/2021 23:22,78,-5.20,-35.46,80.6,13.8
142,Lebu,CL,0,62.28,1/19/2021 23:22,75,-37.62,-73.65,62.28,22.68
143,Yellowknife,CA,90,15.8,1/19/2021 23:22,92,62.46,-114.35,15.8,6.91
144,Provideniya,RU,90,-2.2,1/19/2021 23:19,78,64.38,-173.30,-2.2,8.95
145,Labuhan,ID,100,77.23,1/19/2021 23:22,88,-6.88,112.21,77.23,7.4
146,Marsá Maţrūḩ,EG,40,48.2,1/19/2021 23:22,87,31.35,27.25,48.2,11.5
147,Kavieng,PG,96,82.22,1/19/2021 23:18,78,-2.57,150.80,82.22,13.49
148,San Roque,ES,22,51.8,1/19/2021 23:22,93,36.21,-5.38,51.8,3.44
149,Pļaviņas,LV,0,6.3,1/19/2021 23:22,94,56.62,25.73,6.3,5.48
150,Kharp,RU,96,-20.56,1/19/2021 23:22,85,66.80,65.81,-20.56,3.69
151,Tiksi,RU,100,-26.45,1/19/2021 23:23,80,71.69,128.87,-26.45,1.54
152,Thompson,CA,90,-2.2,1/19/2021 23:18,84,55.74,-97.86,-2.2,5.75
153,Kosonsoy,UZ,90,41,1/19/2021 23:23,87,41.26,71.55,41,6.91
154,Yondó,CO,3,80.83,1/19/2021 23:23,70,7.01,-73.91,80.83,2.28
155,San Quintín,MX,98,64.09,1/19/2021 23:18,70,30.48,-115.95,64.09,23.62
156,Bahir Dar,ET,20,60.4,1/19/2021 23:23,47,11.59,37.39,60.4,2.21
157,San Fernando del Valle de Catamarca,AR,16,69.94,1/19/2021 23:23,58,-28.47,-65.79,72,1.01
158,Taoudenni,ML,13,60.85,1/19/2021 23:20,28,22.68,-3.98,60.85,14.88
159,Butaritari,KI,84,80.13,1/19/2021 23:23,81,3.07,172.79,80.13,21
160,San Jose,US,20,65.88,1/19/2021 23:19,13,37.34,-121.90,68,10.36
161,Camopi,GF,94,72.45,1/19/2021 23:23,96,3.17,-52.32,72.45,4.03
162,Ancud,CL,0,68.92,1/19/2021 23:18,68,-41.87,-73.82,70,6.91
163,Hambantota,LK,96,75.92,1/19/2021 23:23,89,6.12,81.12,75.92,2.06
164,Tottori-shi,JP,75,32,1/19/2021 23:23,86,35.50,134.23,32,8.05
165,Bose,IT,84,32.72,1/19/2021 23:23,73,45.46,8.01,35.01,1.01
166,Kumul,CN,86,14.95,1/19/2021 23:20,77,42.80,93.45,14.95,1.34
167,Aswān,EG,10,52.39,1/19/2021 23:23,45,24.09,32.91,52.39,10.45
168,Dublin,US,1,63.66,1/19/2021 23:21,15,37.70,-121.94,66.2,14.97
169,Fort Walton Beach,US,1,58.93,1/19/2021 23:22,63,30.41,-86.62,60.8,5.75
170,Sioni,GE,0,30.2,1/19/2021 23:23,74,41.99,45.02,30.2,14.97
171,Khani,GE,90,32,1/19/2021 23:19,93,41.96,42.96,32,2.3
172,Laguna,US,1,67.21,1/19/2021 23:20,15,38.42,-121.42,69.01,12.66
173,Vila do Maio,CV,75,69.8,1/19/2021 23:24,73,15.13,-23.22,69.8,16.11
174,Castro,BR,100,64.47,1/19/2021 23:24,98,-24.79,-50.01,64.47,7.25
175,Port Hardy,CA,75,43.5,1/19/2021 23:24,87,50.70,-127.42,44.6,3.44
176,Fare,PF,60,80.73,1/19/2021 23:24,77,-16.70,-151.02,80.73,16.22
177,Tessalit,ML,11,62.56,1/19/2021 23:23,25,20.20,1.01,62.56,14.83
178,Al Bardīyah,LY,4,53.2,1/19/2021 23:24,65,31.76,25.09,53.2,15.66
179,Praia,CV,75,69.8,1/19/2021 23:24,73,14.92,-23.51,69.8,16.11
180,Mayo,US,1,42.42,1/19/2021 23:24,49,38.89,-76.51,44.01,3.44
181,Nan,TH,0,51.8,1/19/2021 23:24,100,18.83,100.67,51.8,3.44
182,Khatanga,RU,100,-27.17,1/19/2021 23:24,86,71.97,102.50,-27.17,1.54
183,Henties Bay,NA,91,66,1/19/2021 23:24,87,-22.12,14.28,66,1.23
184,Cabo San Lucas,MX,90,70.93,1/19/2021 23:24,49,22.89,-109.91,71.6,3.44
185,Inhambane,MZ,97,78.22,1/19/2021 23:24,88,-23.87,35.38,78.22,6.11
186,Choix,MX,100,81.05,1/19/2021 23:24,18,26.71,-108.32,81.05,13.73
187,Magdagachi,RU,100,-24.68,1/19/2021 23:24,86,53.45,125.80,-24.68,6.73
188,China,MX,28,79.52,1/19/2021 23:24,54,25.70,-99.23,79.52,15.23
189,Lompoc,US,41,63.72,1/19/2021 23:24,39,34.64,-120.46,66.99,11.5
190,Pangody,RU,92,-23.04,1/19/2021 23:24,87,65.85,74.49,-23.04,6.53
191,Saint Anthony,US,1,11.71,1/19/2021 23:22,62,45.02,-93.22,12.99,9.22
192,Half Moon Bay,US,1,62.96,1/19/2021 23:24,17,37.46,-122.43,64.4,19.57
193,Katsuura,JP,40,37.54,1/19/2021 23:24,48,35.13,140.30,37.99,18.41
194,Safi,MA,82,56.23,1/19/2021 23:24,78,32.30,-9.24,56.23,8.79
195,Manggar,ID,100,78.31,1/19/2021 23:24,84,-2.88,108.27,78.31,10.22
196,Kutum,SD,41,52.88,1/19/2021 23:24,39,14.20,24.67,52.88,13.62
197,Hammonton,US,15,35.31,1/19/2021 23:25,72,39.64,-74.80,37,6.08
198,Neryungri,RU,100,-28.03,1/19/2021 23:25,81,56.67,124.65,-28.03,6.29
199,San Patricio,US,90,71.6,1/19/2021 23:20,73,28.02,-97.52,73.4,18.41
200,College,US,75,19.98,1/19/2021 23:23,68,64.86,-147.80,21.2,4.61
201,Skibbereen,IE,75,50,1/19/2021 23:25,100,51.55,-9.27,50,17.27
202,Naze,JP,75,59,1/19/2021 23:25,63,28.37,129.48,59,6.91
203,Tucson,US,90,70.2,1/19/2021 23:24,16,32.22,-110.93,72,4.61
204,Talnakh,RU,100,-25.11,1/19/2021 23:25,85,69.49,88.40,-25.11,0.85
205,Nyurba,RU,100,-45.71,1/19/2021 23:25,77,63.28,118.33,-45.71,6.06
206,Arraial do Cabo,BR,0,75.97,1/19/2021 23:25,83,-22.97,-42.03,77,16.11
207,Rāzole,IN,1,63.3,1/19/2021 23:25,93,16.48,81.83,63.3,3.2
208,Anloga,GH,20,80.6,1/19/2021 23:21,89,5.79,0.90,80.6,8.05
209,Guerrero Negro,MX,63,70.36,1/19/2021 23:25,51,27.98,-114.06,70.36,21.47
210,Rochester,US,40,30,1/19/2021 23:21,64,43.15,-77.62,30.99,12.66
211,Fukuechō,JP,20,33.8,1/19/2021 23:25,93,32.69,128.84,33.8,3.44
212,Faanui,PF,7,81.25,1/19/2021 23:25,73,-16.48,-151.75,81.25,14.72
213,Lata,PT,100,54.41,1/19/2021 23:25,77,40.16,-8.33,55.99,5.99
214,Matalom,PH,98,77.85,1/19/2021 23:25,85,10.28,124.79,77.85,3.58
215,Sydney,AU,90,66.69,1/19/2021 23:21,56,-33.87,151.21,68,12.66
216,Yar-Sale,RU,72,-28.34,1/19/2021 23:25,84,66.83,70.83,-28.34,4.23
217,Sørland,NO,72,33.94,1/19/2021 23:25,85,67.67,12.69,33.94,17.63
218,Broken Hill,AU,80,73.4,1/19/2021 23:25,21,-31.95,141.43,73.4,10.36
219,Ilesha,NG,0,74.25,1/19/2021 23:26,81,7.14,5.26,74.25,3.27
220,Tuktoyaktuk,CA,90,3.2,1/19/2021 23:26,78,69.45,-133.04,3.2,13.8
221,Inuvik,CA,100,-6.68,1/19/2021 23:26,84,68.35,-133.72,-5.8,5.75
222,Teya,RU,99,-20.06,1/19/2021 23:26,84,60.38,92.63,-20.06,2.46
223,Itarema,BR,100,79.57,1/19/2021 23:26,79,-2.92,-39.92,79.57,11.21
224,Talaya,RU,80,-44.45,1/19/2021 23:26,75,61.38,152.75,-44.45,1.16
225,Esperance,AU,40,78.8,1/19/2021 23:26,38,-33.87,121.90,78.8,18.41
226,Gushikawa,JP,75,59.9,1/19/2021 23:26,88,26.35,127.87,62.6,10.36
227,Khandyga,RU,100,-41.87,1/19/2021 23:26,80,62.67,135.60,-41.87,0.74
228,Zhicheng,CN,78,45,1/19/2021 23:23,63,30.30,111.50,45,2.51
229,Mount Gambier,AU,0,64.4,1/19/2021 23:26,52,-37.83,140.77,64.4,13.8
230,Honiara,SB,100,80.01,1/19/2021 23:25,78,-9.43,159.95,80.01,2.17
231,Poum,NC,100,79.02,1/19/2021 23:26,82,-20.23,164.02,79.02,3.8
232,Kot Samaba,PK,0,50.31,1/19/2021 23:26,45,28.55,70.47,50.31,3.02
233,Pisco,PE,0,72.81,1/19/2021 23:22,73,-13.70,-76.22,73.4,24.16
234,Viedma,AR,26,77.09,1/19/2021 23:26,46,-40.81,-63.00,77.09,13.53
235,Menomonie,US,75,10.17,1/19/2021 23:26,72,44.88,-91.92,10.4,10.36
236,San Cristobal,VE,40,82.4,1/19/2021 23:26,65,7.77,-72.23,82.4,6.91
237,Troitsko-Pechorsk,RU,100,-2.78,1/19/2021 23:26,92,62.71,56.20,-2.78,7.14
238,Deputatsky,RU,85,-36.58,1/19/2021 23:26,85,69.30,139.90,-36.58,0.98
239,Hohhot,CN,0,5,1/19/2021 23:27,66,40.81,111.65,5,4.47
240,Mezen',RU,96,8.64,1/19/2021 23:27,96,65.85,44.24,8.64,5.03
241,Chui,UY,0,67.1,1/19/2021 23:27,72,-33.70,-53.46,67.1,7.92
242,Goderich,CA,100,28.4,1/19/2021 23:27,64,43.75,-81.72,28.4,16.11
243,Bismarck,US,90,21.67,1/19/2021 23:22,63,46.81,-100.78,23,6.91
244,Kahului,US,40,77.92,1/19/2021 23:27,51,20.89,-156.47,84.2,9.82
245,Saint-François,FR,0,37.33,1/19/2021 23:27,60,46.42,3.91,41,11.5
246,Lüderitz,NA,0,69.78,1/19/2021 23:23,65,-26.65,15.16,69.78,24.4
247,Hofn,IS,40,38.28,1/19/2021 23:27,76,64.25,-15.21,38.28,15.26
248,Ust'-Kulom,RU,100,-5.15,1/19/2021 23:26,91,61.69,53.69,-5.15,4.43
249,Haines Junction,CA,100,28.4,1/19/2021 23:27,80,60.75,-137.51,28.4,1.14
250,Villaviciosa,ES,0,47.05,1/19/2021 23:27,54,43.48,-5.44,51.8,2.3
251,Aginskoye,RU,93,4.62,1/19/2021 23:27,91,51.10,114.53,4.62,4.97
252,Necochea,AR,1,75,1/19/2021 23:27,66,-38.55,-58.74,75,5.01
253,Waverly,US,90,27.93,1/19/2021 23:27,80,42.74,-84.62,28.99,9.22
254,Lamu,KE,1,78.8,1/19/2021 23:27,83,-2.27,40.90,78.8,5.75
255,Beverley,GB,40,50.61,1/19/2021 23:25,93,53.85,-0.42,51.01,21.85
256,Montepuez,MZ,100,71.37,1/19/2021 23:27,96,-13.13,39.00,71.37,2.06
257,Manta,EC,40,82.4,1/19/2021 23:27,74,-0.95,-80.73,82.4,4.61
258,Malbork,PL,90,26.82,1/19/2021 23:27,93,54.04,19.03,27,10.36
259,Kärdla,EE,0,24.01,1/19/2021 23:27,88,59.00,22.75,24.01,7
260,Polunochnoye,RU,100,-6.92,1/19/2021 23:27,91,60.87,60.42,-6.92,6.13
261,Booué,GA,100,74.03,1/19/2021 23:27,91,-0.09,11.94,74.03,1.63
262,Magadan,RU,74,-16.91,1/19/2021 23:27,75,59.57,150.80,-16.91,9.91
263,Oeiras,BR,99,79.25,1/19/2021 23:28,66,-7.03,-42.13,79.25,3.22
264,Broome,US,90,30.09,1/19/2021 23:28,59,42.25,-75.83,32,10.36
265,Manicoré,BR,0,80.6,1/19/2021 23:28,83,-5.81,-61.30,80.6,3.44
266,Puerto Pailas,BO,40,81.5,1/19/2021 23:28,54,-17.67,-62.79,82.4,3.44
267,Beyneu,KZ,98,20.73,1/19/2021 23:28,90,45.32,55.20,20.73,7.47
268,Nouadhibou,MR,100,62.6,1/19/2021 23:28,59,20.93,-17.03,62.6,18.41
269,Plouzané,FR,90,51.24,1/19/2021 23:28,93,48.38,-4.62,51.8,26.46
270,Mahenge,TZ,100,65.86,1/19/2021 23:24,100,-8.68,36.72,65.86,1.41
271,Port Macquarie,AU,90,68.67,1/19/2021 23:22,77,-31.43,152.92,69.01,5.75
272,Kemijärvi,FI,3,4.48,1/19/2021 23:28,94,66.71,27.43,4.48,5.35
273,Bud,US,75,37.94,1/19/2021 23:28,52,39.45,-86.18,39,14.97
274,Balgazyn,RU,100,5.25,1/19/2021 23:28,88,51.00,95.20,5.25,1.59
275,Boddam,GB,75,32.23,1/19/2021 23:28,93,57.47,-1.78,37,4.61
276,Riyadh,SA,0,56.53,1/19/2021 23:26,33,24.69,46.72,57.2,8.05
277,Bartica,GY,75,73.4,1/19/2021 23:28,100,6.40,-58.62,73.4,11.5
278,Bambous Virieux,MU,20,77.94,1/19/2021 23:27,94,-20.34,57.76,79,3.44
279,Encheng,CN,99,59.97,1/19/2021 23:28,72,22.18,112.30,59.97,5.64
280,Goryachiy Klyuch,RU,75,13.26,1/19/2021 23:28,92,44.63,39.13,16,4.47
281,Abu Samrah,SY,92,44.67,1/19/2021 23:28,84,35.30,37.18,44.67,4.76
282,Saint-Leu,RE,0,75.87,1/19/2021 23:28,74,-21.15,55.28,80.6,2.3
283,Requena,ES,31,40.5,1/19/2021 23:28,100,39.49,-1.10,44.01,3.44
284,Vila Franca do Campo,PT,20,58.46,1/19/2021 23:28,72,37.72,-25.43,59,6.91
285,Turukhansk,RU,100,-22.41,1/19/2021 23:28,87,65.82,87.98,-22.41,5.61
286,Boa Vista,BR,0,84.2,1/19/2021 23:28,51,2.82,-60.67,84.2,5.75
287,Iranshahr,IR,0,57.81,1/19/2021 23:28,42,27.20,60.68,57.81,4.32
288,Lac du Bonnet,CA,92,-4.49,1/19/2021 23:29,100,50.25,-96.06,-4,5.01
289,Lavaca,US,90,70.59,1/19/2021 23:29,68,28.62,-96.63,71.6,10.36
290,Kodinsk,RU,100,-15.99,1/19/2021 23:29,87,58.69,99.18,-15.99,2.91
291,Bijie,CN,100,37.29,1/19/2021 23:26,89,27.31,105.29,37.29,4.36
292,Komsomolets,KZ,100,10.08,1/19/2021 23:29,96,53.75,62.07,10.08,5.68
293,Mogadishu,SO,93,76.19,1/19/2021 23:27,86,2.04,45.34,76.19,21.41
294,Sayyan,YE,34,42.55,1/19/2021 23:29,51,15.17,44.32,42.55,2.28
295,Hīt,IQ,0,54.32,1/19/2021 23:29,41,33.64,42.83,54.32,9.15
296,Tazovsky,RU,74,-27.47,1/19/2021 23:29,86,67.47,78.70,-27.47,6.82
297,Coquimbo,CL,0,62.6,1/19/2021 23:27,72,-29.95,-71.34,62.6,9.22
298,Alto Araguaia,BR,100,71.89,1/19/2021 23:29,87,-17.31,-53.22,71.89,3.51
299,Natal,BR,75,80.6,1/19/2021 23:29,78,-5.80,-35.21,80.6,11.5
300,El Sauce,NI,40,73.4,1/19/2021 23:29,68,12.89,-86.54,73.4,9.22
301,Santa Marinella,IT,53,39.99,1/19/2021 23:29,92,42.03,11.85,39.99,7.14
302,Treinta y Tres,UY,0,71.65,1/19/2021 23:29,56,-33.23,-54.38,71.65,9.86
303,Japura,ID,99,70.39,1/19/2021 23:29,95,-0.32,102.35,70.39,1.61
304,Hede,CN,0,38.89,1/19/2021 23:29,89,33.77,120.25,38.89,11.34
305,Pacifica,US,20,62.8,1/19/2021 23:29,39,37.61,-122.49,64.4,16.11
306,Srednekolymsk,RU,39,-44.18,1/19/2021 23:29,79,67.45,153.68,-44.18,4.27
307,Baykit,RU,99,-27.51,1/19/2021 23:27,80,61.67,96.37,-27.51,1.3
308,Killarney,IE,100,51.06,1/19/2021 23:29,91,52.05,-9.52,51.06,7.78
309,Marabu,MY,40,75.11,1/19/2021 23:27,100,4.41,114.01,75.2,3.44
310,Los Alamos,US,90,25.11,1/19/2021 23:29,100,35.89,-106.31,27,8.05
311,Bandarbeyla,SO,100,73.74,1/19/2021 23:27,78,9.49,50.81,73.74,20.42
312,Champerico,GT,40,76.98,1/19/2021 23:28,58,14.30,-91.92,87.8,6.91
313,Thinadhoo,MV,24,80.44,1/19/2021 23:28,67,0.53,72.93,80.44,5.1
314,Puerto Nariño,CO,75,75.2,1/19/2021 23:30,94,-3.77,-70.38,75.2,0.98
315,Kourou,GF,75,75.2,1/19/2021 23:30,88,5.16,-52.65,75.2,11.5
316,Mwinilunga,ZM,100,64.22,1/19/2021 23:30,93,-11.74,24.43,64.22,6.51
317,Punta Alta,AR,36,85.87,1/19/2021 23:30,27,-38.88,-62.07,85.87,12.03
318,Zaria,NG,0,66.2,1/19/2021 23:28,25,11.11,7.72,66.2,11.79
319,Bafra,TR,75,28.4,1/19/2021 23:30,93,41.57,35.91,28.4,4.61
320,Alyangula,AU,40,86,1/19/2021 23:27,79,-13.85,136.42,86,3.44
321,Kruisfontein,ZA,5,66,1/19/2021 23:27,81,-34.00,24.73,66,1.99
322,Galesong,ID,40,77,1/19/2021 23:30,100,-5.32,119.37,77,4.61
323,Pitsunda,GE,90,32.5,1/19/2021 23:30,93,43.16,40.34,33.01,2.24
324,Vardø,NO,100,24.01,1/19/2021 23:30,89,70.37,31.11,24.01,17.85
325,Grand Forks,US,40,1.8,1/19/2021 23:30,78,47.94,-97.43,3.2,8.05
326,Ibrā’,OM,0,56.75,1/19/2021 23:30,68,22.69,58.53,56.75,1.54
327,Qui Nhon,VN,53,66.25,1/19/2021 23:25,80,13.77,109.23,66.25,7.49
328,Carballo,ES,100,47.48,1/19/2021 23:26,87,43.21,-8.69,50,17
329,Saint-Pierre,RE,0,76.86,1/19/2021 23:30,74,-21.34,55.48,80.6,2.3
330,Cizre,TR,99,42.26,1/19/2021 23:30,85,37.33,42.19,42.26,4.05
331,Zapolyarnyy,RU,90,15.8,1/19/2021 23:30,92,69.42,30.81,15.8,3.44
332,Flinders,AU,69,71.01,1/19/2021 23:30,63,-34.58,150.86,71.01,4
333,Petrozavodsk,RU,86,24.8,1/19/2021 23:30,100,61.78,34.35,24.8,7
334,Bāglung,NP,48,48.78,1/19/2021 23:30,58,28.27,83.59,48.78,4.23
335,Ternate,ID,99,83.39,1/19/2021 23:30,76,0.80,127.40,83.39,4.68
336,Inírida,CO,89,76.3,1/19/2021 23:31,84,3.87,-67.92,76.3,1.79
337,Bandar-e Lengeh,IR,0,63.79,1/19/2021 23:31,52,26.56,54.88,63.79,5.06
338,Carnarvon,AU,90,78.8,1/19/2021 23:27,83,-24.87,113.63,78.8,13.8
339,Newport,GB,100,50.94,1/19/2021 23:30,99,51.59,-3.00,54,3
340,Dvinskoy,RU,95,8.02,1/19/2021 23:31,95,62.15,45.12,8.02,4.21
341,Koutsouras,GR,42,46.99,1/19/2021 23:31,65,35.03,25.95,46.99,26.53
342,Koungou,YT,90,84.2,1/19/2021 23:31,79,-12.73,45.20,84.2,10.36
343,Acajutla,SV,4,84.2,1/19/2021 23:31,45,13.59,-89.83,84.2,4.61
344,Nova Borova,UA,0,3.16,1/19/2021 23:31,92,50.69,28.63,3.16,6.73
345,Keene,US,79,31.26,1/19/2021 23:31,77,42.93,-72.28,32,5.86
346,Mareeba,AU,96,77.59,1/19/2021 23:31,84,-17.00,145.43,80.01,8.01
347,Iqaluit,CA,90,28.2,1/19/2021 23:29,100,63.75,-68.51,28.4,5.55
348,Norman Wells,CA,75,12.2,1/19/2021 23:31,85,65.28,-126.83,12.2,20.71
349,Hobyo,SO,53,76.8,1/19/2021 23:31,81,5.35,48.53,76.8,17.63
350,Maunabo,PR,87,74.98,1/19/2021 23:31,94,18.01,-65.90,78.01,5.01
351,Karasjok,NO,0,-0.4,1/19/2021 23:31,85,69.47,25.51,-0.4,2.3
352,Tateyama,JP,43,37.33,1/19/2021 23:31,37,34.98,139.87,37.99,4
353,Biltine,TD,0,64.08,1/19/2021 23:31,27,14.53,20.92,64.08,17.98
354,Coari,BR,91,73.83,1/19/2021 23:31,98,-4.09,-63.14,73.83,2.75
355,Kassala,SD,8,61.23,1/19/2021 23:31,90,15.45,36.40,61.23,7.18
356,Omsukchan,RU,66,-38.79,1/19/2021 23:31,79,62.53,155.80,-38.79,5.66
357,Punto Fijo,VE,37,78.76,1/19/2021 23:31,77,11.70,-70.20,78.76,21.39
358,Río Gallegos,AR,40,60.8,1/19/2021 23:29,51,-51.62,-69.22,60.8,34.52
359,Baghdad,IQ,0,51.8,1/19/2021 23:31,58,33.34,44.40,51.8,11.5
360,Progreso,MX,75,82.4,1/19/2021 23:32,54,21.28,-89.67,82.4,16.11
361,Oktyabr'skoye,RU,12,24.4,1/19/2021 23:32,93,43.06,44.74,24.8,4.47
362,Bonanza,NI,16,71.73,1/19/2021 23:32,91,14.03,-84.59,71.73,4.36
363,Gayny,RU,91,-9.54,1/19/2021 23:32,88,60.31,54.32,-9.54,1.7
364,Biloela,AU,68,84.34,1/19/2021 23:32,47,-24.42,150.50,84.34,14.92
365,Bonthe,SL,36,77.63,1/19/2021 23:32,84,7.53,-12.51,77.63,6.85
366,Longhua,CN,79,56.35,1/19/2021 23:32,49,23.61,114.19,56.35,2.37
367,Morón,AR,40,84.36,1/19/2021 23:32,23,-34.65,-58.62,86.00,8.43
368,Yangi Marg`ilon,UZ,90,41,1/19/2021 23:32,87,40.43,71.72,41.00,6.91
369,Kozova,UA,100,20.55,1/19/2021 23:32,98,49.44,25.15,20.55,7.07
370,Kyaikto,MM,57,65.16,1/19/2021 23:32,71,17.30,97.02,65.16,4.61
371,Ojinaga,MX,1,54.03,1/19/2021 23:32,44,29.57,-104.42,59.000,16.11
372,Chilca,PE,0,73.08,1/19/2021 23:32,73,-12.52,-76.74,73.4,14.97
373,Ko Samui,TH,96,78.87,1/19/2021 23:31,69,9.54,99.94,78.87,8.99
374,Zhangaözen,KZ,98,24.33,1/19/2021 23:32,92,43.30,52.80,24.33,7.9
375,Sur,OM,0,68.38,1/19/2021 23:32,54,22.57,59.53,68.38,3.53
376,Mersing,MY,91,77,1/19/2021 23:32,83,2.43,103.84,77,10.36
377,Tostedt,DE,90,46.47,1/19/2021 23:32,93,53.28,9.72,46.99,17.27
378,Juneau,US,90,31.78,1/19/2021 23:32,81,58.30,-134.42,37.4,9.22
379,Lahad Datu,MY,60,78.19,1/19/2021 23:32,87,5.03,118.33,78.19,0.85
380,Bereda,ES,95,48.34,1/19/2021 23:32,66,43.27,-7.54,48.99,15.99
381,Pedernales,DO,100,77.4,1/19/2021 23:32,67,18.04,-71.74,77.4,1.28
382,Ugoofaaru,MV,29,81.81,1/19/2021 23:32,65,5.67,73.00,81.81,7.61
383,Karratha,AU,19,93.54,1/19/2021 23:33,47,-20.74,116.85,93.54,4.43
384,Moose Factory,CA,40,-8.54,1/19/2021 23:33,77,51.26,-80.61,-7.6,5.75
385,Plácido de Castro,BR,100,76.26,1/19/2021 23:33,80,-10.34,-67.19,76.26,1.99
386,Bariloche,AR,0,78.8,1/19/2021 23:33,22,-41.15,-71.31,78.8,16.11
387,Quelimane,MZ,20,82.2,1/19/2021 23:33,89,-17.88,36.89,82.4,3.44
388,Puerto Maldonado,PE,0,80.6,1/19/2021 23:33,69,-12.60,-69.18,80.6,1.14
389,Savannah Bight,HN,40,79.93,1/19/2021 23:33,78,16.45,-85.85,80.6,3.44
390,Fortuna,US,1,56.79,1/19/2021 23:33,47,40.60,-124.16,57.99,12.66
391,Jiblah,YE,57,54.88,1/19/2021 23:33,84,13.92,44.15,54.88,1.5
392,Port Lincoln,AU,17,70.32,1/19/2021 23:33,58,-34.73,135.87,70.32,11.43
393,La Rochelle,FR,0,47.46,1/19/2021 23:31,81,46.17,-1.15,48.99,14.97
394,Vila,PT,100,46.99,1/19/2021 23:33,85,42.03,-8.16,46.99,18.01
395,Yagodnoye,RU,10,-31.59,1/19/2021 23:33,80,62.55,149.67,-31.59,2.04
396,Tatarsk,RU,50,-19.01,1/19/2021 23:33,85,55.22,75.98,-19.01,4.9
397,Meadow Lake,US,75,40.46,1/19/2021 23:30,55,34.80,-106.54,43.000,25.32
398,Kargil,IN,0,-7.58,1/19/2021 23:33,74,34.57,76.10,-7.58,1.9
399,Nara,JP,75,36.79,1/19/2021 23:33,56,34.69,135.80,37.4,2.3
400,Aklavik,CA,90,1.4,1/19/2021 23:33,85,68.22,-135.01,1.4,12.66
401,Longyearbyen,SJ,75,21.2,1/19/2021 23:31,63,78.22,15.64,21.2,14.97
402,Ambovombe,MG,75,76.14,1/19/2021 23:33,88,-25.17,46.08,76.14,15.93
403,Pozo Colorado,PY,23,75.92,1/19/2021 23:33,60,-23.49,-58.80,75.92,2.26
404,Fushun,CN,90,26.6,1/19/2021 23:33,68,41.86,123.92,26.6,15.66
405,Wajir,KE,100,77.85,1/19/2021 23:33,50,1.75,40.06,77.85,14.92
406,Djebeniana,TN,0,46.4,1/19/2021 23:33,81,35.04,10.91,46.4,3.44
407,Valpaços,PT,100,39.99,1/19/2021 23:33,99,41.61,-7.31,39.99,1.01
408,Alofi,NU,40,84.2,1/19/2021 23:34,79,-19.06,-169.92,84.2,5.75
409,Burgeo,CA,68,26.22,1/19/2021 23:34,91,47.62,-57.62,26.22,20.04
410,Koslan,RU,99,6.28,1/19/2021 23:34,94,63.46,48.90,6.28,6.53
411,Kisangani,CD,80,73.11,1/19/2021 23:34,77,0.52,25.20,73.11,2.53
412,Ranong,TH,20,73.4,1/19/2021 23:34,83,9.97,98.63,73.4,4.61
413,Slonim,BY,25,5.65,1/19/2021 23:34,92,53.09,25.32,5.65,10.8
414,Okhotsk,RU,100,-5.24,1/19/2021 23:34,83,59.38,143.30,-5.24,5.95
415,Murray Bridge,AU,0,72.01,1/19/2021 23:34,37,-35.12,139.27,73.000,7.34
416,Rosario,AR,0,84.85,1/19/2021 23:29,39,-32.95,-60.64,86.000,5.75
417,Paamiut,GL,85,30.33,1/19/2021 23:34,89,61.99,-49.67,30.33,9.37
418,Codrington,AU,2,63.73,1/19/2021 23:34,46,-38.27,141.97,63.73,8.32
419,Lagoa,PT,100,59.85,1/19/2021 23:34,76,39.05,-27.98,59.85,21.43
420,Portland,US,40,51.04,1/19/2021 23:25,54,45.52,-122.68,53.01,3.44
421,Viesca,MX,90,77,1/19/2021 23:34,25,25.35,-102.80,77,4.61
422,Yinchuan,CN,17,22.08,1/19/2021 23:34,68,38.47,106.27,22.08,3.89
423,Kieta,PG,67,84.74,1/19/2021 23:34,65,-6.22,155.63,84.74,4.34
424,Bambanglipuro,ID,96,78.12,1/19/2021 23:34,82,-7.95,110.28,78.12,4.16
425,Cascas,PE,98,66.04,1/19/2021 23:34,75,-7.48,-78.82,66.04,4.07
426,Port Said,EG,40,53.6,1/19/2021 23:34,87,31.26,32.28,53.6,8.05
427,Araouane,ML,20,68.38,1/19/2021 23:34,23,18.90,-3.53,68.38,10.07
428,Ivanovo,RU,91,4.71,1/19/2021 23:34,95,56.99,40.99,4.71,5.01
429,Nahariya,IL,56,53.01,1/19/2021 23:34,86,33.01,35.09,53.01,1.01
430,Ferkessédougou,CI,0,74.07,1/19/2021 23:34,19,9.60,-5.20,74.07,4.52
431,Georgiyevskoye,RU,91,-2,1/19/2021 23:34,93,58.73,45.02,-2,3.47
432,Kiryat Gat,IL,100,51.55,1/19/2021 23:34,100,31.61,34.76,54.000,1.99
433,Pula,HR,40,42.8,1/19/2021 23:35,81,44.87,13.85,42.8,3.44
434,Maniitsoq,GL,100,30.54,1/19/2021 23:35,88,65.42,-52.90,30.54,11.14
435,The Valley,AI,40,78.58,1/19/2021 23:34,73,18.22,-63.06,78.8,10.36
436,Marawi,PH,97,73.44,1/19/2021 23:35,85,8.00,124.29,73.44,2.84
437,Yei,SS,5,71.17,1/19/2021 23:35,45,4.10,30.68,71.17,0.87
438,Grindavik,IS,20,32,1/19/2021 23:35,74,63.84,-22.43,32.000,23.02
439,Naberera,TZ,99,63.28,1/19/2021 23:35,78,-4.20,36.93,63.28,3.13
440,Takapau,NZ,63,53.01,1/19/2021 23:35,90,-40.03,176.35,53.01,5.01
441,Bitburg,DE,1,30.67,1/19/2021 23:35,80,49.97,6.53,32.000,5.75
442,Nome,US,1,-7.55,1/19/2021 23:33,71,64.50,-165.41,-7.01,2.84
443,Dhidhdhoo,MV,31,81,1/19/2021 23:35,66,6.88,73.10,81.000,4.52
444,Caravelas,BR,0,75.22,1/19/2021 23:35,83,-17.71,-39.25,75.22,5.55
445,Teahupoo,PF,20,86.9,1/19/2021 23:35,55,-17.83,-149.27,87.8,9.22
446,Westport,US,1,35.51,1/19/2021 23:35,56,41.14,-73.36,37.4,6.91
447,Zyryanovsk,KZ,100,10.85,1/19/2021 23:35,87,49.74,84.27,10.85,0.78
448,Vila Velha,BR,0,77.83,1/19/2021 23:35,73,-20.33,-40.29,78.8,10.36
449,Salisbury,GB,75,50.61,1/19/2021 23:34,100,51.07,-1.80,52.000,23.02
450,Ketchikan,US,75,39.2,1/19/2021 23:35,87,55.34,-131.65,39.2,3.44
451,Airai,TL,99,67.48,1/19/2021 23:35,100,-8.93,125.41,67.48,3.09
452,Quatre Cocos,MU,20,78.06,1/19/2021 23:35,94,-20.21,57.76,79,3.44
453,Genhe,CN,100,-9.65,1/19/2021 23:35,88,50.78,121.52,-9.65,1.23
454,Plettenberg Bay,ZA,25,63.27,1/19/2021 23:35,84,-34.05,23.37,63.27,5.26
455,La Ronge,CA,100,23.9,1/19/2021 23:35,86,55.10,-105.28,24.8,13.8
456,Andros Town,BS,20,69.8,1/19/2021 23:36,64,24.70,-77.77,69.8,11.5
457,Manokwari,ID,77,81.39,1/19/2021 23:31,75,-0.87,134.08,81.39,2.66
458,Pacific Grove,US,1,67.05,1/19/2021 23:33,12,36.62,-121.92,69.8,12.66
459,Monrovia,LR,90,77,1/19/2021 23:34,94,6.30,-10.80,77.000,6.64
460,Alexandria,EG,40,53.6,1/19/2021 23:36,71,31.22,29.96,53.6,13.8
461,Zelenoborsk,RU,93,-8,1/19/2021 23:36,87,61.47,64.03,-8,8.7
462,Xining,CN,100,17.04,1/19/2021 23:36,67,36.62,101.77,17.04,1.92
463,Mauá,BR,90,70.84,1/19/2021 23:32,83,-23.67,-46.46,71.6,11.5
464,Lebedinyy,RU,100,-18.63,1/19/2021 23:36,84,58.52,125.52,-18.63,13.76
465,Palmer,US,75,29.86,1/19/2021 23:34,80,42.16,-72.33,33.01,6.91
466,Jiwani,PK,0,69.85,1/19/2021 23:36,84,25.05,61.74,69.85,9.46
467,Cherskiy,RU,100,-42.25,1/19/2021 23:36,80,68.75,161.30,-42.25,6.67
468,Sisimiut,GL,100,28.06,1/19/2021 23:36,81,66.94,-53.67,28.06,6.2
469,Samarai,PG,100,86.4,1/19/2021 23:36,71,-10.62,150.67,86.4,13.58
470,Vanavara,RU,92,-36.17,1/19/2021 23:36,81,60.34,102.28,-36.17,4.29
471,Lavrentiya,RU,17,-14.62,1/19/2021 23:36,83,65.58,-171.00,-14.62,3.74
472,Kwang Binh,VN,90,63.09,1/19/2021 23:36,82,17.48,106.60,63.09,2.98
473,Semnan,IR,7,39.36,1/19/2021 23:36,64,35.57,53.40,39.36,0.94
474,Prince Rupert,CA,90,39.2,1/19/2021 23:36,87,54.32,-130.32,39.2,14.97
475,Arman',RU,72,-16.02,1/19/2021 23:36,77,59.70,150.17,-16.02,10.47
476,Kupang,ID,75,77,1/19/2021 23:36,100,-10.17,123.58,77,4.61
477,Mossamedes,AO,100,72.48,1/19/2021 23:36,72,-15.20,12.15,72.48,3.96
478,Rodnikovo,UA,78,25,1/19/2021 23:36,59,45.04,33.95,25,1.99
479,Krasnoarmiys'k,UA,81,-0.49,1/19/2021 23:37,94,48.28,37.18,-0.49,5.06
480,Rafai,CF,2,72.25,1/19/2021 23:37,25,4.95,23.92,72.25,4.83
481,Tautira,PF,20,86.9,1/19/2021 23:37,55,-17.73,-149.15,87.8,9.22
482,Tvøroyri,FO,54,33.8,1/19/2021 23:37,93,61.56,-6.81,33.8,8.05
483,Koutiala,ML,0,72.21,1/19/2021 23:37,20,12.39,-5.46,72.21,8.19
484,Aranos,NA,56,79.41,1/19/2021 23:37,45,-24.13,19.12,79.41,9.22
485,Harper,LR,0,79.18,1/19/2021 23:37,83,4.38,-7.72,79.18,8.23
486,Heihe,CN,20,-13,1/19/2021 23:37,77,50.24,127.49,-13,11.18
487,Ongandjera,NA,91,75.63,1/19/2021 23:37,49,-17.88,15.07,75.63,7.25
488,Gweta,BW,100,71.67,1/19/2021 23:37,79,-20.18,25.23,71.67,11.74
489,Finschhafen,PG,85,86.2,1/19/2021 23:37,64,-6.60,147.87,86.2,2.51
490,Ovsyanka,RU,0,-4,1/19/2021 23:37,65,55.96,92.55,-4,13.42
491,Nacala,MZ,100,78.46,1/19/2021 23:33,94,-14.54,40.67,78.46,2.8
492,Popondetta,PG,83,90.21,1/19/2021 23:37,55,-8.75,148.25,90.21,2.62
493,Palmetto,US,84,59.97,1/19/2021 23:34,51,27.52,-82.57,62.6,5.75
494,Maţāy,EG,72,46.99,1/19/2021 23:37,90,28.42,30.78,46.99,7.18
495,Colgong,IN,0,55.78,1/19/2021 23:37,67,25.27,87.22,55.78,2.28
496,Mossendjo,CG,75,69.35,1/19/2021 23:37,97,-2.95,12.73,69.35,0.43
497,Severnyy,RU,0,-0.4,1/19/2021 23:37,85,50.68,36.55,-0.4,6.71
498,Benghazi,LY,24,55.49,1/19/2021 23:37,59,32.12,20.07,55.49,14.54
499,Zhangjiakou,CN,0,13.24,1/19/2021 23:37,88,40.81,114.88,13.24,1.23
500,Lithgow,AU,99,51.01,1/19/2021 23:37,43,-33.48,150.15,51.01,4
501,Saint-Louis,SN,0,71.6,1/19/2021 23:37,35,16.33,-15.00,71.6,2.3
502,Patiya,BD,0,55.26,1/19/2021 23:38,62,22.29,91.98,55.26,2.66
503,San Juan,AR,8,87.84,1/19/2021 23:38,16,-31.54,-68.54,87.84,9.8
504,Mehamn,NO,96,22.03,1/19/2021 23:38,90,71.04,27.85,22.03,13.76
505,Atbasar,KZ,99,6.26,1/19/2021 23:38,94,51.80,68.33,6.26,13.62
506,Pilar,BR,20,77,1/19/2021 23:38,83,-9.60,-35.96,77.00,4.61
507,Reconquista,AR,0,75.92,1/19/2021 23:33,48,-29.15,-59.65,75.92,6.15
508,Oussouye,SN,0,71.6,1/19/2021 23:38,68,12.49,-16.55,71.6,11.5
509,Namatanai,PG,65,83.64,1/19/2021 23:38,73,-3.67,152.43,83.64,7.76
510,Puerto Escondido,MX,20,78.8,1/19/2021 23:38,73,15.85,-97.07,78.8,6.91
511,Mount Darwin,ZW,100,68.16,1/19/2021 23:38,96,-16.77,31.58,68.16,7.61
512,Rudnogorsk,RU,100,-6.7,1/19/2021 23:38,92,57.26,103.75,-6.7,3.13
513,Cleveland,US,90,32.43,1/19/2021 23:35,64,41.50,-81.70,34,10.36
514,Richards Bay,ZA,28,72.72,1/19/2021 23:38,75,-28.78,32.04,72.72,6.78
515,Khorramshahr,IR,0,51.8,1/19/2021 23:38,76,30.44,48.17,51.8,5.86
516,Qeshm,IR,0,61.27,1/19/2021 23:38,88,26.96,56.27,68.000,6.91
517,Panama City,PA,20,83.7,1/19/2021 23:34,65,8.99,-79.52,84.2,12.66
518,Salinópolis,BR,100,78.37,1/19/2021 23:38,84,-0.61,-47.36,78.37,11.7
519,Yumen,CN,76,18.84,1/19/2021 23:38,65,40.28,97.20,18.84,6.55
520,Moundou,TD,0,70.09,1/19/2021 23:38,22,8.57,16.08,70.09,5.57
521,Dicabisagan,PH,100,76.05,1/19/2021 23:38,90,17.08,122.42,76.05,13.78
522,Cockburn Town,TC,40,77,1/19/2021 23:35,78,21.46,-71.14,77.000,11.5
523,Kedrovyy,RU,0,-4,1/19/2021 23:38,65,56.17,91.82,-4.00,13.42
524,Niquelândia,BR,37,71.01,1/19/2021 23:38,84,-14.47,-48.46,71.01,0.76
525,Tiznit Province,MA,44,54.41,1/19/2021 23:38,42,29.58,-9.50,54.41,1.88
526,Tahoua,NE,0,71.6,1/19/2021 23:39,16,14.89,5.27,71.6,9.22
527,Beisfjord,NO,20,24.8,1/19/2021 23:39,63,68.38,17.60,24.8,12.66
528,Ginir,ET,7,57.67,1/19/2021 23:39,47,7.13,40.70,57.67,5.28
529,Khanbari,NP,60,49.6,1/19/2021 23:39,64,27.37,87.20,49.6,1.9
530,Lorengau,PG,95,85.08,1/19/2021 23:39,68,-2.02,147.27,85.08,8.16
531,Bay Roberts,CA,51,31.1,1/19/2021 23:39,85,47.60,-53.26,32.000,4
532,Cayenne,GF,0,75.2,1/19/2021 23:37,94,4.93,-52.33,75.2,12.82
533,Beaverlodge,CA,75,33.8,1/19/2021 23:39,93,55.22,-119.44,33.8,40.29
534,Kalāleh,IR,0,46.96,1/19/2021 23:39,61,37.38,55.49,46.96,1.54
535,Deloraine,AU,0,62.46,1/19/2021 23:39,55,-41.53,146.67,64.000,5.75
536,Ürümqi,CN,100,1.4,1/19/2021 23:39,85,43.80,87.60,1.4,4.12
